{"type": "FeatureCollection", "features": [{"type": "Feature", "geometry": {"type": "Point", "coordinates": [-79.332692, 43.722419]}, "properties": {"name": "Aga Khan Park & Museum Station", "lines": "Line 5", "status": "Existing", "statusColor": "#333333"}}, {"type": "Feature", "geometry": {"type": "Point", "coordinates": [-79.589183, 43.741171]}, "properties": {"name": "Albion Station", "lines": "Line 6", "status": "Existing", "statusColor": "#333333"}}, {"type": "Feature", "geometry": {"type": "Point", "coordinates": [-79.408895, 43.704813]}, "properties": {"name": "Avenue Station", "lines": "Line 5", "status": "Existing", "statusColor": "#333333"}}, {"type": "Feature", "geometry": {"type": "Point", "coordinates": [-79.41144, 43.665799]}, "properties": {"name": "Bathurst Station", "lines": "Line 2", "status": "Existing", "statusColor": "#333333"}}, {"type": "Feature", "geometry": {"type": "Point", "coordinates": [-79.390939, 43.669999]}, "properties": {"name": "Bay Station", "lines": "Line 2", "status": "Existing", "statusColor": "#333333"}}, {"type": "Feature", "geometry": {"type": "Point", "coordinates": [-79.386717, 43.766911]}, "properties": {"name": "Bayview Station", "lines": "Line 4", "status": "Existing", "statusColor": "#333333"}}, {"type": "Feature", "geometry": {"type": "Point", "coordinates": [-79.376328, 43.769249]}, "properties": {"name": "Bessarion Station", "lines": "Line 4", "status": "Existing", "statusColor": "#333333"}}, {"type": "Feature", "geometry": {"type": "Point", "coordinates": [-79.277054, 43.730181]}, "properties": {"name": "Birchmount Station", "lines": "Line 5", "status": "Existing", "statusColor": "#333333"}}, {"type": "Feature", "geometry": {"type": "Point", "coordinates": [-79.385654, 43.670547]}, "properties": {"name": "Bloor Station", "lines": "Line 1", "status": "Existing", "statusColor": "#333333"}}, {"type": "Feature", "geometry": {"type": "Point", "coordinates": [-79.358838, 43.676699]}, "properties": {"name": "Broadview Station", "lines": "Line 2", "status": "Existing", "statusColor": "#333333"}}, {"type": "Feature", "geometry": {"type": "Point", "coordinates": [-79.465389, 43.692348]}, "properties": {"name": "Caledonia Station", "lines": "Line 5", "status": "Existing", "statusColor": "#333333"}}, {"type": "Feature", "geometry": {"type": "Point", "coordinates": [-79.368938, 43.673799]}, "properties": {"name": "Castle Frank Station", "lines": "Line 2", "status": "Existing", "statusColor": "#333333"}}, {"type": "Feature", "geometry": {"type": "Point", "coordinates": [-79.43625, 43.699478]}, "properties": {"name": "Cedarvale Station", "lines": "Line 1, Line 5", "status": "Existing", "statusColor": "#333333"}}, {"type": "Feature", "geometry": {"type": "Point", "coordinates": [-79.417404, 43.702961]}, "properties": {"name": "Chaplin Station", "lines": "Line 5", "status": "Existing", "statusColor": "#333333"}}, {"type": "Feature", "geometry": {"type": "Point", "coordinates": [-79.352519, 43.678296]}, "properties": {"name": "Chester Station", "lines": "Line 2", "status": "Existing", "statusColor": "#333333"}}, {"type": "Feature", "geometry": {"type": "Point", "coordinates": [-79.41814, 43.664299]}, "properties": {"name": "Christie Station", "lines": "Line 2", "status": "Existing", "statusColor": "#333333"}}, {"type": "Feature", "geometry": {"type": "Point", "coordinates": [-79.382888, 43.660799]}, "properties": {"name": "College Station", "lines": "Line 1", "status": "Existing", "statusColor": "#333333"}}, {"type": "Feature", "geometry": {"type": "Point", "coordinates": [-79.322836, 43.684399]}, "properties": {"name": "Coxwell Station", "lines": "Line 2", "status": "Existing", "statusColor": "#333333"}}, {"type": "Feature", "geometry": {"type": "Point", "coordinates": [-79.39709, 43.697648]}, "properties": {"name": "Davisville Station", "lines": "Line 1", "status": "Existing", "statusColor": "#333333"}}, {"type": "Feature", "geometry": {"type": "Point", "coordinates": [-79.346386, 43.775397]}, "properties": {"name": "Don Mills Station", "lines": "Line 4", "status": "Existing", "statusColor": "#333333"}}, {"type": "Feature", "geometry": {"type": "Point", "coordinates": [-79.339178, 43.720012]}, "properties": {"name": "Don Valley Station", "lines": "Line 5", "status": "Existing", "statusColor": "#333333"}}, {"type": "Feature", "geometry": {"type": "Point", "coordinates": [-79.338337, 43.681049]}, "properties": {"name": "Donlands Station", "lines": "Line 2", "status": "Existing", "statusColor": "#333333"}}, {"type": "Feature", "geometry": {"type": "Point", "coordinates": [-79.478693, 43.753311]}, "properties": {"name": "Downsview Park Station", "lines": "Line 1", "status": "Existing", "statusColor": "#333333"}}, {"type": "Feature", "geometry": {"type": "Point", "coordinates": [-79.513354, 43.758068]}, "properties": {"name": "Driftwood Station", "lines": "Line 6", "status": "Existing", "statusColor": "#333333"}}, {"type": "Feature", "geometry": {"type": "Point", "coordinates": [-79.43479, 43.660699]}, "properties": {"name": "Dufferin Station", "lines": "Line 2", "status": "Existing", "statusColor": "#333333"}}, {"type": "Feature", "geometry": {"type": "Point", "coordinates": [-79.557553, 43.748827]}, "properties": {"name": "Duncanwoods Station", "lines": "Line 6", "status": "Existing", "statusColor": "#333333"}}, {"type": "Feature", "geometry": {"type": "Point", "coordinates": [-79.451941, 43.657299]}, "properties": {"name": "Dundas West Station", "lines": "Line 2", "status": "Existing", "statusColor": "#333333"}}, {"type": "Feature", "geometry": {"type": "Point", "coordinates": [-79.40689, 43.674349]}, "properties": {"name": "Dupont Station", "lines": "Line 1", "status": "Existing", "statusColor": "#333333"}}, {"type": "Feature", "geometry": {"type": "Point", "coordinates": [-79.398808, 43.706017]}, "properties": {"name": "Eglinton Station", "lines": "Line 1, Line 5", "status": "Existing", "statusColor": "#333333"}}, {"type": "Feature", "geometry": {"type": "Point", "coordinates": [-79.542392, 43.752081]}, "properties": {"name": "Emery Station", "lines": "Line 6", "status": "Existing", "statusColor": "#333333"}}, {"type": "Feature", "geometry": {"type": "Point", "coordinates": [-79.449443, 43.695767]}, "properties": {"name": "Fairbank Station", "lines": "Line 5", "status": "Existing", "statusColor": "#333333"}}, {"type": "Feature", "geometry": {"type": "Point", "coordinates": [-79.415492, 43.780497]}, "properties": {"name": "Finch Station", "lines": "Line 1", "status": "Existing", "statusColor": "#333333"}}, {"type": "Feature", "geometry": {"type": "Point", "coordinates": [-79.490932, 43.764049]}, "properties": {"name": "Finch West Station", "lines": "Line 1, Line 6", "status": "Existing", "statusColor": "#333333"}}, {"type": "Feature", "geometry": {"type": "Point", "coordinates": [-79.425302, 43.701199]}, "properties": {"name": "Forest Hill Station", "lines": "Line 5", "status": "Existing", "statusColor": "#333333"}}, {"type": "Feature", "geometry": {"type": "Point", "coordinates": [-79.440541, 43.708598]}, "properties": {"name": "Glencairn Station", "lines": "Line 1", "status": "Existing", "statusColor": "#333333"}}, {"type": "Feature", "geometry": {"type": "Point", "coordinates": [-79.287626, 43.727866]}, "properties": {"name": "Golden Mile Station", "lines": "Line 5", "status": "Existing", "statusColor": "#333333"}}, {"type": "Feature", "geometry": {"type": "Point", "coordinates": [-79.330837, 43.682699]}, "properties": {"name": "Greenwood Station", "lines": "Line 2", "status": "Existing", "statusColor": "#333333"}}, {"type": "Feature", "geometry": {"type": "Point", "coordinates": [-79.291555, 43.726997]}, "properties": {"name": "Hakimi Lebovic Station", "lines": "Line 5", "status": "Existing", "statusColor": "#333333"}}, {"type": "Feature", "geometry": {"type": "Point", "coordinates": [-79.467841, 43.653699]}, "properties": {"name": "High Park Station", "lines": "Line 2", "status": "Existing", "statusColor": "#333333"}}, {"type": "Feature", "geometry": {"type": "Point", "coordinates": [-79.523454, 43.783359]}, "properties": {"name": "Highway 407 Station", "lines": "Line 1", "status": "Existing", "statusColor": "#333333"}}, {"type": "Feature", "geometry": {"type": "Point", "coordinates": [-79.60153, 43.729898]}, "properties": {"name": "Humber College Station", "lines": "Line 6", "status": "Existing", "statusColor": "#333333"}}, {"type": "Feature", "geometry": {"type": "Point", "coordinates": [-79.272093, 43.731312]}, "properties": {"name": "Ionview Station", "lines": "Line 5", "status": "Existing", "statusColor": "#333333"}}, {"type": "Feature", "geometry": {"type": "Point", "coordinates": [-79.524144, 43.645398]}, "properties": {"name": "Islington Station", "lines": "Line 2", "status": "Existing", "statusColor": "#333333"}}, {"type": "Feature", "geometry": {"type": "Point", "coordinates": [-79.483742, 43.649949]}, "properties": {"name": "Jane Station", "lines": "Line 2", "status": "Existing", "statusColor": "#333333"}}, {"type": "Feature", "geometry": {"type": "Point", "coordinates": [-79.517713, 43.757248]}, "properties": {"name": "Jane and Finch Station", "lines": "Line 6", "status": "Existing", "statusColor": "#333333"}}, {"type": "Feature", "geometry": {"type": "Point", "coordinates": [-79.459541, 43.655499]}, "properties": {"name": "Keele Station", "lines": "Line 2", "status": "Existing", "statusColor": "#333333"}}, {"type": "Feature", "geometry": {"type": "Point", "coordinates": [-79.474676, 43.690513]}, "properties": {"name": "Keelesdale Station", "lines": "Line 5", "status": "Existing", "statusColor": "#333333"}}, {"type": "Feature", "geometry": {"type": "Point", "coordinates": [-79.264366, 43.732554]}, "properties": {"name": "Kennedy Station", "lines": "Line 2, Line 5", "status": "Existing", "statusColor": "#333333"}}, {"type": "Feature", "geometry": {"type": "Point", "coordinates": [-79.377888, 43.649049]}, "properties": {"name": "King Station", "lines": "Line 1", "status": "Existing", "statusColor": "#333333"}}, {"type": "Feature", "geometry": {"type": "Point", "coordinates": [-79.535793, 43.63752]}, "properties": {"name": "Kipling Station", "lines": "Line 2", "status": "Existing", "statusColor": "#333333"}}, {"type": "Feature", "geometry": {"type": "Point", "coordinates": [-79.365031, 43.713269]}, "properties": {"name": "Laird Station", "lines": "Line 5", "status": "Existing", "statusColor": "#333333"}}, {"type": "Feature", "geometry": {"type": "Point", "coordinates": [-79.442467, 43.65928]}, "properties": {"name": "Lansdowne Station", "lines": "Line 2", "status": "Existing", "statusColor": "#333333"}}, {"type": "Feature", "geometry": {"type": "Point", "coordinates": [-79.40239, 43.725948]}, "properties": {"name": "Lawrence Station", "lines": "Line 1", "status": "Existing", "statusColor": "#333333"}}, {"type": "Feature", "geometry": {"type": "Point", "coordinates": [-79.443915, 43.715266]}, "properties": {"name": "Lawrence West Station", "lines": "Line 1", "status": "Existing", "statusColor": "#333333"}}, {"type": "Feature", "geometry": {"type": "Point", "coordinates": [-79.376689, 43.710876]}, "properties": {"name": "Leaside Station", "lines": "Line 5", "status": "Existing", "statusColor": "#333333"}}, {"type": "Feature", "geometry": {"type": "Point", "coordinates": [-79.36589, 43.771298]}, "properties": {"name": "Leslie Station", "lines": "Line 4", "status": "Existing", "statusColor": "#333333"}}, {"type": "Feature", "geometry": {"type": "Point", "coordinates": [-79.301536, 43.689099]}, "properties": {"name": "Main Street Station", "lines": "Line 2", "status": "Existing", "statusColor": "#333333"}}, {"type": "Feature", "geometry": {"type": "Point", "coordinates": [-79.591918, 43.736739]}, "properties": {"name": "Martin Grove Station", "lines": "Line 6", "status": "Existing", "statusColor": "#333333"}}, {"type": "Feature", "geometry": {"type": "Point", "coordinates": [-79.552309, 43.749971]}, "properties": {"name": "Milvan Rumike Station", "lines": "Line 6", "status": "Existing", "statusColor": "#333333"}}, {"type": "Feature", "geometry": {"type": "Point", "coordinates": [-79.485789, 43.688025]}, "properties": {"name": "Mount Dennis Station", "lines": "Line 5", "status": "Existing", "statusColor": "#333333"}}, {"type": "Feature", "geometry": {"type": "Point", "coordinates": [-79.581782, 43.743302]}, "properties": {"name": "Mount Olive Station", "lines": "Line 6", "status": "Existing", "statusColor": "#333333"}}, {"type": "Feature", "geometry": {"type": "Point", "coordinates": [-79.390435, 43.708585]}, "properties": {"name": "Mount Pleasant Station", "lines": "Line 5", "status": "Existing", "statusColor": "#333333"}}, {"type": "Feature", "geometry": {"type": "Point", "coordinates": [-79.393189, 43.666599]}, "properties": {"name": "Museum Station", "lines": "Line 1", "status": "Existing", "statusColor": "#333333"}}, {"type": "Feature", "geometry": {"type": "Point", "coordinates": [-79.524252, 43.755943]}, "properties": {"name": "Norfinch Oakdale Station", "lines": "Line 6", "status": "Existing", "statusColor": "#333333"}}, {"type": "Feature", "geometry": {"type": "Point", "coordinates": [-79.412542, 43.767947]}, "properties": {"name": "North York Centre Station", "lines": "Line 1", "status": "Existing", "statusColor": "#333333"}}, {"type": "Feature", "geometry": {"type": "Point", "coordinates": [-79.301785, 43.724826]}, "properties": {"name": "O'Connor Station", "lines": "Line 5", "status": "Existing", "statusColor": "#333333"}}, {"type": "Feature", "geometry": {"type": "Point", "coordinates": [-79.442958, 43.697485]}, "properties": {"name": "Oakwood Station", "lines": "Line 5", "status": "Existing", "statusColor": "#333333"}}, {"type": "Feature", "geometry": {"type": "Point", "coordinates": [-79.494142, 43.649748]}, "properties": {"name": "Old Mill Station", "lines": "Line 2", "status": "Existing", "statusColor": "#333333"}}, {"type": "Feature", "geometry": {"type": "Point", "coordinates": [-79.386688, 43.651099]}, "properties": {"name": "Osgoode Station", "lines": "Line 1", "status": "Existing", "statusColor": "#333333"}}, {"type": "Feature", "geometry": {"type": "Point", "coordinates": [-79.42699, 43.662199]}, "properties": {"name": "Ossington Station", "lines": "Line 2", "status": "Existing", "statusColor": "#333333"}}, {"type": "Feature", "geometry": {"type": "Point", "coordinates": [-79.344937, 43.679799]}, "properties": {"name": "Pape Station", "lines": "Line 2", "status": "Existing", "statusColor": "#333333"}}, {"type": "Feature", "geometry": {"type": "Point", "coordinates": [-79.562497, 43.747743]}, "properties": {"name": "Pearldale Station", "lines": "Line 6", "status": "Existing", "statusColor": "#333333"}}, {"type": "Feature", "geometry": {"type": "Point", "coordinates": [-79.296742, 43.725841]}, "properties": {"name": "Pharmacy Station", "lines": "Line 5", "status": "Existing", "statusColor": "#333333"}}, {"type": "Feature", "geometry": {"type": "Point", "coordinates": [-79.509353, 43.776746]}, "properties": {"name": "Pioneer Village Station", "lines": "Line 1", "status": "Existing", "statusColor": "#333333"}}, {"type": "Feature", "geometry": {"type": "Point", "coordinates": [-79.379388, 43.652749]}, "properties": {"name": "Queen Station", "lines": "Line 1", "status": "Existing", "statusColor": "#333333"}}, {"type": "Feature", "geometry": {"type": "Point", "coordinates": [-79.390489, 43.659899]}, "properties": {"name": "Queen's Park Station", "lines": "Line 1", "status": "Existing", "statusColor": "#333333"}}, {"type": "Feature", "geometry": {"type": "Point", "coordinates": [-79.388339, 43.676649]}, "properties": {"name": "Rosedale Station", "lines": "Line 1", "status": "Existing", "statusColor": "#333333"}}, {"type": "Feature", "geometry": {"type": "Point", "coordinates": [-79.568579, 43.746311]}, "properties": {"name": "Rowntree Mills Station", "lines": "Line 6", "status": "Existing", "statusColor": "#333333"}}, {"type": "Feature", "geometry": {"type": "Point", "coordinates": [-79.509593, 43.648448]}, "properties": {"name": "Royal York Station", "lines": "Line 2", "status": "Existing", "statusColor": "#333333"}}, {"type": "Feature", "geometry": {"type": "Point", "coordinates": [-79.475842, 43.651899]}, "properties": {"name": "Runnymede Station", "lines": "Line 2", "status": "Existing", "statusColor": "#333333"}}, {"type": "Feature", "geometry": {"type": "Point", "coordinates": [-79.500039, 43.761081]}, "properties": {"name": "Sentinel Station", "lines": "Line 6", "status": "Existing", "statusColor": "#333333"}}, {"type": "Feature", "geometry": {"type": "Point", "coordinates": [-79.462387, 43.749675]}, "properties": {"name": "Sheppard West Station", "lines": "Line 1", "status": "Existing", "statusColor": "#333333"}}, {"type": "Feature", "geometry": {"type": "Point", "coordinates": [-79.410517, 43.761285]}, "properties": {"name": "Sheppard-Yonge Station", "lines": "Line 1, Line 4", "status": "Existing", "statusColor": "#333333"}}, {"type": "Feature", "geometry": {"type": "Point", "coordinates": [-79.376167, 43.672139]}, "properties": {"name": "Sherbourne Station", "lines": "Line 2", "status": "Existing", "statusColor": "#333333"}}, {"type": "Feature", "geometry": {"type": "Point", "coordinates": [-79.536226, 43.753293]}, "properties": {"name": "Signet Arrow Station", "lines": "Line 6", "status": "Existing", "statusColor": "#333333"}}, {"type": "Feature", "geometry": {"type": "Point", "coordinates": [-79.31268, 43.72592]}, "properties": {"name": "Sloane Station", "lines": "Line 5", "status": "Existing", "statusColor": "#333333"}}, {"type": "Feature", "geometry": {"type": "Point", "coordinates": [-79.404889, 43.668374]}, "properties": {"name": "Spadina Station", "lines": "Line 1, Line 2", "status": "Existing", "statusColor": "#333333"}}, {"type": "Feature", "geometry": {"type": "Point", "coordinates": [-79.384788, 43.647649]}, "properties": {"name": "St Andrew Station", "lines": "Line 1", "status": "Existing", "statusColor": "#333333"}}, {"type": "Feature", "geometry": {"type": "Point", "coordinates": [-79.393289, 43.688049]}, "properties": {"name": "St Clair Station", "lines": "Line 1", "status": "Existing", "statusColor": "#333333"}}, {"type": "Feature", "geometry": {"type": "Point", "coordinates": [-79.41564, 43.684548]}, "properties": {"name": "St Clair West Station", "lines": "Line 1", "status": "Existing", "statusColor": "#333333"}}, {"type": "Feature", "geometry": {"type": "Point", "coordinates": [-79.398814, 43.668399]}, "properties": {"name": "St George Station", "lines": "Line 1, Line 2", "status": "Existing", "statusColor": "#333333"}}, {"type": "Feature", "geometry": {"type": "Point", "coordinates": [-79.388188, 43.654649]}, "properties": {"name": "St Patrick Station", "lines": "Line 1", "status": "Existing", "statusColor": "#333333"}}, {"type": "Feature", "geometry": {"type": "Point", "coordinates": [-79.586949, 43.743219]}, "properties": {"name": "Stevenson Station", "lines": "Line 6", "status": "Existing", "statusColor": "#333333"}}, {"type": "Feature", "geometry": {"type": "Point", "coordinates": [-79.390989, 43.682699]}, "properties": {"name": "Summerhill Station", "lines": "Line 1", "status": "Existing", "statusColor": "#333333"}}, {"type": "Feature", "geometry": {"type": "Point", "coordinates": [-79.349134, 43.717309]}, "properties": {"name": "Sunnybrook Park Station", "lines": "Line 5", "status": "Existing", "statusColor": "#333333"}}, {"type": "Feature", "geometry": {"type": "Point", "coordinates": [-79.380988, 43.656549]}, "properties": {"name": "TMU Station", "lines": "Line 1", "status": "Existing", "statusColor": "#333333"}}, {"type": "Feature", "geometry": {"type": "Point", "coordinates": [-79.507918, 43.759332]}, "properties": {"name": "Tobermory Station", "lines": "Line 6", "status": "Existing", "statusColor": "#333333"}}, {"type": "Feature", "geometry": {"type": "Point", "coordinates": [-79.380588, 43.645699]}, "properties": {"name": "Union Station", "lines": "Line 1", "status": "Existing", "statusColor": "#333333"}}, {"type": "Feature", "geometry": {"type": "Point", "coordinates": [-79.527906, 43.794021]}, "properties": {"name": "Vaughan Metropolitan Centre Station", "lines": "Line 1", "status": "Existing", "statusColor": "#333333"}}, {"type": "Feature", "geometry": {"type": "Point", "coordinates": [-79.288685, 43.694899]}, "properties": {"name": "Victoria Park Station", "lines": "Line 2", "status": "Existing", "statusColor": "#333333"}}, {"type": "Feature", "geometry": {"type": "Point", "coordinates": [-79.278935, 43.711549]}, "properties": {"name": "Warden Station", "lines": "Line 2", "status": "Existing", "statusColor": "#333333"}}, {"type": "Feature", "geometry": {"type": "Point", "coordinates": [-79.383638, 43.665549]}, "properties": {"name": "Wellesley Station", "lines": "Line 1", "status": "Existing", "statusColor": "#333333"}}, {"type": "Feature", "geometry": {"type": "Point", "coordinates": [-79.600709, 43.73475]}, "properties": {"name": "Westmore Station", "lines": "Line 6", "status": "Existing", "statusColor": "#333333"}}, {"type": "Feature", "geometry": {"type": "Point", "coordinates": [-79.450042, 43.734448]}, "properties": {"name": "Wilson Station", "lines": "Line 1", "status": "Existing", "statusColor": "#333333"}}, {"type": "Feature", "geometry": {"type": "Point", "coordinates": [-79.313136, 43.686499]}, "properties": {"name": "Woodbine Station", "lines": "Line 2", "status": "Existing", "statusColor": "#333333"}}, {"type": "Feature", "geometry": {"type": "Point", "coordinates": [-79.32666, 43.724083]}, "properties": {"name": "Wynford Station", "lines": "Line 5", "status": "Existing", "statusColor": "#333333"}}, {"type": "Feature", "geometry": {"type": "Point", "coordinates": [-79.386372, 43.671023]}, "properties": {"name": "Yonge Station", "lines": "Line 2", "status": "Existing", "statusColor": "#333333"}}, {"type": "Feature", "geometry": {"type": "Point", "coordinates": [-79.406091, 43.743848]}, "properties": {"name": "York Mills Station", "lines": "Line 1", "status": "Existing", "statusColor": "#333333"}}, {"type": "Feature", "geometry": {"type": "Point", "coordinates": [-79.499888, 43.774097]}, "properties": {"name": "York University", "lines": "Line 1", "status": "Existing", "statusColor": "#333333"}}, {"type": "Feature", "geometry": {"type": "Point", "coordinates": [-79.447492, 43.724598]}, "properties": {"name": "Yorkdale Station", "lines": "Line 1", "status": "Existing", "statusColor": "#333333"}}]}